{"t0":{"Id":"abakan","Name":"\u0410\u0431\u0430\u043a\u0430\u043d","Phone":"(3902) 297-307","Longitude":"53.720976","Latitude":"91.442423"},"t1":{"Id":"almetevsk","Name":"\u0410\u043b\u044c\u043c\u0435\u0442\u044c\u0435\u0432\u0441\u043a","Phone":"(8553) 38-02-87","Longitude":"54.891292","Latitude":"52.317163"},"t2":{"Id":"angarsk","Name":"\u0410\u043d\u0433\u0430\u0440\u0441\u043a","Phone":"(3955) 510-150","Longitude":"52.526665","Latitude":"103.897646"},"t3":{"Id":"anzhero-sudzhensk","Name":"\u0410\u043d\u0436\u0435\u0440\u043e-\u0421\u0443\u0434\u0436\u0435\u043d\u0441\u043a","Phone":"8-800-555-13-31","Longitude":"56.086947","Latitude":"86.038733"},"t4":{"Id":"arsenyev","Name":"\u0410\u0440\u0441\u0435\u043d\u044c\u0435\u0432","Phone":"(42361) 4-10-54","Longitude":"44.155707","Latitude":"133.2681"},"t5":{"Id":"artem","Name":"\u0410\u0440\u0442\u0435\u043c","Phone":"(42337) 6-16-23","Longitude":"43.362813","Latitude":"132.190858"},"t6":{"Id":"arkhangelsk","Name":"\u0410\u0440\u0445\u0430\u043d\u0433\u0435\u043b\u044c\u0441\u043a","Phone":"8-800-555-13-31","Longitude":"64.545818","Latitude":"40.551776"},"t7":{"Id":"achinsk","Name":"\u0410\u0447\u0438\u043d\u0441\u043a","Phone":"(39151) 57-100","Longitude":"56.257323","Latitude":"90.493722"},"t8":{"Id":"balakovo","Name":"\u0411\u0430\u043b\u0430\u043a\u043e\u0432\u043e","Phone":"(8453) 66-02-21","Longitude":"51.987842","Latitude":"47.824419"},"t9":{"Id":"barnaul","Name":"\u0411\u0430\u0440\u043d\u0430\u0443\u043b","Phone":"8-800-555-13-31","Longitude":"53.356132","Latitude":"83.74962"},"t10":{"Id":"bataysk","Name":"\u0411\u0430\u0442\u0430\u0439\u0441\u043a","Phone":"(863) 207-90-77","Longitude":"47.116164","Latitude":"39.733545"},"t11":{"Id":"belgorod","Name":"\u0411\u0435\u043b\u0433\u043e\u0440\u043e\u0434","Phone":"8-800-555-13-31","Longitude":"50.600486","Latitude":"36.598155"},"t12":{"Id":"belovo","Name":"\u0411\u0435\u043b\u043e\u0432\u043e","Phone":"8-800-555-13-31","Longitude":"54.384758","Latitude":"86.317678"},"t13":{"Id":"berdsk","Name":"\u0411\u0435\u0440\u0434\u0441\u043a","Phone":"8-800-555-13-31","Longitude":"54.773782","Latitude":"83.083258"},"t14":{"Id":"berezniki","Name":"\u0411\u0435\u0440\u0435\u0437\u043d\u0438\u043a\u0438","Phone":"(3424) 290-700","Longitude":"59.419941","Latitude":"56.79902"},"t15":{"Id":"biysk","Name":"\u0411\u0438\u0439\u0441\u043a","Phone":"8-800-555-13-31","Longitude":"52.526993","Latitude":"85.223881"},"t16":{"Id":"blagoveshensk","Name":"\u0411\u043b\u0430\u0433\u043e\u0432\u0435\u0449\u0435\u043d\u0441\u043a","Phone":"(4162) 222-632","Longitude":"50.327366","Latitude":"127.536255"},"t17":{"Id":"bratsk","Name":"\u0411\u0440\u0430\u0442\u0441\u043a","Phone":"(3953) 47-27-07","Longitude":"56.269851","Latitude":"101.659448"},"t18":{"Id":"bryansk","Name":"\u0411\u0440\u044f\u043d\u0441\u043a","Phone":"(4832) 51-84-87","Longitude":"53.281039","Latitude":"34.376235"},"t19":{"Id":"velikiy-novgorod","Name":"\u0412\u0435\u043b\u0438\u043a\u0438\u0439 \u041d\u043e\u0432\u0433\u043e\u0440\u043e\u0434","Phone":"8-800-555-13-31","Longitude":"58.522711","Latitude":"31.270337"},"t20":{"Id":"vladivostok","Name":"\u0412\u043b\u0430\u0434\u0438\u0432\u043e\u0441\u0442\u043e\u043a","Phone":"(423) 245-06-50","Longitude":"43.134091","Latitude":"131.928478"},"t21":{"Id":"vladimir","Name":"\u0412\u043b\u0430\u0434\u0438\u043c\u0438\u0440","Phone":"(4922) 32-82-74","Longitude":"56.139928","Latitude":"40.407892"},"t22":{"Id":"volgograd","Name":"\u0412\u043e\u043b\u0433\u043e\u0433\u0440\u0430\u0434","Phone":"(8442) 59-00-57","Longitude":"48.707793","Latitude":"44.515942"},"t23":{"Id":"volgodonsk","Name":"\u0412\u043e\u043b\u0433\u043e\u0434\u043e\u043d\u0441\u043a","Phone":"(8639) 25-72-44","Longitude":"47.534306","Latitude":"42.162545"},"t24":{"Id":"volzhskiy","Name":"\u0412\u043e\u043b\u0436\u0441\u043a\u0438\u0439","Phone":"(8442) 59-00-57","Longitude":"48.831648","Latitude":"44.767057"},"t25":{"Id":"vologda","Name":"\u0412\u043e\u043b\u043e\u0433\u0434\u0430","Phone":"8-800-555-13-31","Longitude":"59.223043","Latitude":"39.883869"},"t26":{"Id":"voronezh","Name":"\u0412\u043e\u0440\u043e\u043d\u0435\u0436","Phone":"(473) 269-77-55","Longitude":"51.662496","Latitude":"39.204096"},"t27":{"Id":"gorno-altaysk","Name":"\u0413\u043e\u0440\u043d\u043e-\u0410\u043b\u0442\u0430\u0439\u0441\u043a","Phone":"8-800-555-13-31","Longitude":"51.945754","Latitude":"85.945084"},"t28":{"Id":"dzerginsk","Name":"\u0414\u0437\u0435\u0440\u0436\u0438\u043d\u0441\u043a","Phone":"(8313) 34-32-35","Longitude":"56.239398","Latitude":"43.460458"},"t29":{"Id":"ekaterinburg","Name":"\u0415\u043a\u0430\u0442\u0435\u0440\u0438\u043d\u0431\u0443\u0440\u0433","Phone":"(343) 287-05-06","Longitude":"56.837982","Latitude":"60.59734"},"t30":{"Id":"zlatoust","Name":"\u0417\u043b\u0430\u0442\u043e\u0443\u0441\u0442","Phone":"(3513) 62-24-64","Longitude":"55.141825","Latitude":"59.70728"},"t31":{"Id":"ivanovo","Name":"\u0418\u0432\u0430\u043d\u043e\u0432\u043e","Phone":"(4932) 58-77-66","Longitude":"57.008607","Latitude":"40.996702"},"t32":{"Id":"izhevsk","Name":"\u0418\u0436\u0435\u0432\u0441\u043a","Phone":"(3412) 79-99-96","Longitude":"56.855708","Latitude":"53.201285"},"t33":{"Id":"irkutsk","Name":"\u0418\u0440\u043a\u0443\u0442\u0441\u043a","Phone":"(3952) 48-57-21","Longitude":"52.276547","Latitude":"104.284891"},"t34":{"Id":"iskitim","Name":"\u0418\u0441\u0438\u043a\u0442\u0438\u043c","Phone":"8-800-555-13-31","Longitude":"54.625223","Latitude":"83.301306"},"t35":{"Id":"yoshkar-ola","Name":"\u0419\u043e\u0448\u043a\u0430\u0440-\u041e\u043b\u0430","Phone":"(8362) 30-40-07","Longitude":"56.636382","Latitude":"47.874509"},"t36":{"Id":"kazan","Name":"\u041a\u0430\u0437\u0430\u043d\u044c","Phone":"(843) 211-8-555","Longitude":"55.786764","Latitude":"49.122853"},"t37":{"Id":"kaluga","Name":"\u041a\u0430\u043b\u0443\u0433\u0430","Phone":"8-800-555-13-31","Longitude":"54.533832","Latitude":"36.237041"},"t38":{"Id":"kamensk-uralskiy","Name":"\u041a\u0430\u043c\u0435\u043d\u0441\u043a-\u0423\u0440\u0430\u043b\u044c\u0441\u043a\u0438\u0439","Phone":"(3439) 37-99-88","Longitude":"56.3889","Latitude":"61.916965"},"t39":{"Id":"kansk","Name":"\u041a\u0430\u043d\u0441\u043a","Phone":"(39161) 29-6-29","Longitude":"56.206767","Latitude":"95.706519"},"t40":{"Id":"kemerovo","Name":"\u041a\u0435\u043c\u0435\u0440\u043e\u0432\u043e","Phone":"8-800-555-13-31","Longitude":"55.359594","Latitude":"86.087781"},"t41":{"Id":"kirov","Name":"\u041a\u0438\u0440\u043e\u0432","Phone":"(8332) 210-461","Longitude":"58.581576","Latitude":"49.662283"},"t42":{"Id":"kiselevsk","Name":"\u041a\u0438\u0441\u0435\u043b\u0435\u0432\u0441\u043a","Phone":"8-800-555-13-31","Longitude":"54.006967","Latitude":"86.649085"},"t43":{"Id":"klin","Name":"\u041a\u043b\u0438\u043d","Phone":"(496) 247-97-24","Longitude":"56.328494","Latitude":"36.724997"},"t44":{"Id":"kolomna","Name":"\u041a\u043e\u043b\u043e\u043c\u043d\u0430","Phone":"(496) 616-98-83","Longitude":"55.080421","Latitude":"38.797698"},"t45":{"Id":"komsomolsk-na-amure","Name":"\u041a\u043e\u043c\u0441\u043e\u043c\u043e\u043b\u044c\u043a-\u043d\u0430-\u0410\u043c\u0443\u0440\u0435","Phone":"(4217) 54-36-66","Longitude":"","Latitude":""},"t46":{"Id":"kopeysk","Name":"\u041a\u043e\u043f\u0435\u0439\u0441\u043a","Phone":"(35139) 411-75","Longitude":"","Latitude":""},"t47":{"Id":"kostroma","Name":"\u041a\u043e\u0441\u0442\u0440\u043e\u043c\u0430","Phone":"(4942) 64-21-20","Longitude":"","Latitude":""},"t48":{"Id":"krasnodar","Name":"\u041a\u0440\u0430\u0441\u043d\u043e\u0434\u0430\u0440","Phone":"(861) 267-55-99","Longitude":"","Latitude":""},"t49":{"Id":"krasnoyarsk","Name":"\u041a\u0440\u0430\u0441\u043d\u043e\u044f\u0440\u0441\u043a","Phone":"(391) 290-21-01","Longitude":"","Latitude":""},"t50":{"Id":"kurgan","Name":"\u041a\u0443\u0440\u0433\u0430\u043d","Phone":"(3522) 65-50-31","Longitude":"","Latitude":""},"t51":{"Id":"kursk","Name":"\u041a\u0443\u0440\u0441\u043a","Phone":"8-800-555-13-31","Longitude":"","Latitude":""},"t52":{"Id":"leninsk-kuznetskiy","Name":"\u041b\u0435\u043d\u0438\u043d\u0441\u043a-\u041a\u0443\u0437\u043d\u0435\u0442\u0441\u043a\u0438\u0439","Phone":"8-800-555-13-31","Longitude":"","Latitude":""},"t53":{"Id":"lipetsk","Name":"\u041b\u0438\u043f\u0435\u0446\u043a","Phone":"(4742) 240-212","Longitude":"","Latitude":""},"t54":{"Id":"magnitogorsk","Name":"\u041c\u0430\u0433\u043d\u0438\u0442\u043e\u0433\u043e\u0440\u0441\u043a","Phone":"(3519) 580 -271","Longitude":"","Latitude":""},"t55":{"Id":"mezhdurechensk","Name":"\u041c\u0435\u0436\u0434\u0443\u0440\u0435\u0447\u0435\u043d\u0441\u043a","Phone":"8-800-555-13-31","Longitude":"","Latitude":""},"t56":{"Id":"miass","Name":"\u041c\u0438\u0430\u0441\u0441","Phone":"(3513) 57-48-35","Longitude":"","Latitude":""},"t57":{"Id":"moscow","Name":"\u041c\u043e\u0441\u043a\u0432\u0430","Phone":"(495) 600-41-07","Longitude":"","Latitude":""},"t58":{"Id":"naberezhnye-chelny","Name":"\u041d\u0430\u0431\u0435\u0440\u0435\u0436\u043d\u044b\u0435 \u0427\u0435\u043b\u043d\u044b","Phone":"(8552) 580-632","Longitude":"","Latitude":""},"t59":{"Id":"nakhodka","Name":"\u041d\u0430\u0445\u043e\u0434\u043a\u0430","Phone":"(4236) 69-80-24","Longitude":"","Latitude":""},"t60":{"Id":"neftekamsk","Name":"\u041d\u0435\u0444\u0442\u0435\u043a\u0430\u043c\u0441\u043a","Phone":"8-800-555-13-31","Longitude":"","Latitude":""},"t61":{"Id":"nizhnekamsk","Name":"\u041d\u0438\u0436\u043d\u0435\u043a\u0430\u043c\u0441\u043a","Phone":"(8555) 306-888","Longitude":"","Latitude":""},"t62":{"Id":"nizhniy-novgorod","Name":"\u041d\u0438\u0436\u043d\u0438\u0439 \u041d\u043e\u0432\u0433\u043e\u0440\u043e\u0434","Phone":"(831) 218-03-03","Longitude":"","Latitude":""},"t63":{"Id":"nizhniy-tagil","Name":"\u041d\u0438\u0436\u043d\u0438\u0439 \u0422\u0430\u0433\u0438\u043b","Phone":"(3435) 47-64-34","Longitude":"","Latitude":""},"t64":{"Id":"novoaltaysk","Name":"\u041d\u043e\u0432\u043e\u0430\u043b\u0442\u0430\u0439\u0441\u043a","Phone":"8-800-555-13-31","Longitude":"","Latitude":""},"t65":{"Id":"novokuznetsk","Name":"\u041d\u043e\u0432\u043e\u043a\u0443\u0437\u043d\u0435\u0446\u043a","Phone":"8-800-555-13-31","Longitude":"","Latitude":""},"t66":{"Id":"novokuybishevsk","Name":"\u041d\u043e\u0432\u043e\u043a\u0443\u0439\u0431\u044b\u0448\u0435\u0432\u0441\u043a","Phone":"8-800-555-13-31","Longitude":"","Latitude":""},"t67":{"Id":"novomoskovsk","Name":"\u041d\u043e\u0432\u043e\u043c\u043e\u0441\u043a\u043e\u0432\u0441\u043a","Phone":"(48762) 31 0 13","Longitude":"","Latitude":""},"t68":{"Id":"novorossiysk","Name":"\u041d\u043e\u0432\u043e\u0440\u043e\u0441\u0441\u0438\u0439\u0441\u043a","Phone":"(8617) 67-60-06","Longitude":"","Latitude":""},"t69":{"Id":"novosibirsk","Name":"\u041d\u043e\u0432\u043e\u0441\u0438\u0431\u0438\u0440\u0441\u043a","Phone":"8-800-555-13-31","Longitude":"","Latitude":""},"t70":{"Id":"novotroitsk","Name":"\u041d\u043e\u0432\u043e\u0442\u0440\u043e\u0438\u0446\u043a","Phone":"8-800-555-13-31","Longitude":"","Latitude":""},"t71":{"Id":"novocheboksarsk","Name":"\u041d\u043e\u0432\u043e\u0447\u0435\u0431\u043e\u043a\u0441\u0430\u0440\u0441\u043a","Phone":"(8352) 77-60-40, 77-60-80","Longitude":"","Latitude":""},"t72":{"Id":"novocherkassk","Name":"\u041d\u043e\u0432\u043e\u0447\u0435\u0440\u043a\u0430\u0441\u0441\u043a","Phone":"(8635) 27-71-62","Longitude":"","Latitude":""},"t73":{"Id":"noginsk","Name":"\u041d\u043e\u0433\u0438\u043d\u0441\u043a","Phone":"8-800-555-13-31","Longitude":"","Latitude":""},"t74":{"Id":"oktyabrskiy","Name":"\u041e\u043a\u0442\u044f\u0431\u0440\u044c\u0441\u043a\u0438\u0439","Phone":"(34767) 4-23-35","Longitude":"","Latitude":""},"t75":{"Id":"omsk","Name":"\u041e\u043c\u0441\u043a","Phone":"8-800-555-13-31","Longitude":"","Latitude":""},"t76":{"Id":"orel","Name":"\u041e\u0440\u0435\u043b","Phone":"8-800-555-13-31","Longitude":"","Latitude":""},"t77":{"Id":"orenburg","Name":"\u041e\u0440\u0435\u043d\u0431\u0443\u0440\u0433","Phone":"(3532) 30-60-51","Longitude":"","Latitude":""},"t78":{"Id":"orekhovo-zuevo","Name":"\u041e\u0440\u0435\u0445\u043e\u0432\u043e-\u0417\u0443\u0435\u0432\u043e","Phone":"(496) 415-25-77","Longitude":"","Latitude":""},"t79":{"Id":"orsk","Name":"\u041e\u0440\u0441\u043a","Phone":"8-800-555-13-31","Longitude":"","Latitude":""},"t80":{"Id":"penza","Name":"\u041f\u0435\u043d\u0437\u0430","Phone":"(8412)99-88-08","Longitude":"","Latitude":""},"t81":{"Id":"pervouralsk","Name":"\u041f\u0435\u0440\u0432\u043e\u0443\u0440\u0430\u043b\u044c\u0441\u043a","Phone":"(3439) 66-65-95","Longitude":"","Latitude":""},"t82":{"Id":"perm","Name":"\u041f\u0435\u0440\u043c\u044c","Phone":"(342) 201-75-95","Longitude":"","Latitude":""},"t83":{"Id":"petrozavodsk","Name":"\u041f\u0435\u0442\u0440\u043e\u0437\u0430\u0432\u043e\u0434\u0441\u043a","Phone":"8-800-555-13-31","Longitude":"","Latitude":""},"t84":{"Id":"prokopievsk","Name":"\u041f\u0440\u043e\u043a\u043e\u043f\u044c\u0435\u0432\u0441\u043a","Phone":"8-800-555-13-31","Longitude":"","Latitude":""},"t85":{"Id":"pskov","Name":"\u041f\u0441\u043a\u043e\u0432","Phone":"8-800-555-13-31","Longitude":"","Latitude":""},"t86":{"Id":"rostov-na-donu","Name":"\u0420\u043e\u0441\u0442\u043e\u0432-\u043d\u0430-\u0414\u043e\u043d\u0443","Phone":"(863) 207-90-77","Longitude":"","Latitude":""},"t87":{"Id":"rubtsovsk","Name":"\u0420\u0443\u0431\u0446\u043e\u0432\u0441\u043a","Phone":"8-800-555-13-31","Longitude":"","Latitude":""},"t88":{"Id":"rybinsk","Name":"\u0420\u044b\u0431\u0438\u043d\u0441\u043a","Phone":"+7(4855)28-17-99","Longitude":"","Latitude":""},"t89":{"Id":"ryazan","Name":"\u0420\u044f\u0437\u0430\u043d\u044c","Phone":"(4912) 20-55-77","Longitude":"","Latitude":""},"t90":{"Id":"salavat","Name":"\u0421\u0430\u043b\u0430\u0432\u0430\u0442","Phone":"(3476) 32-15-17","Longitude":"","Latitude":""},"t91":{"Id":"samara","Name":"\u0421\u0430\u043c\u0430\u0440\u0430","Phone":"(846) 203-81-30","Longitude":"53.205226","Latitude":"50.191184"},"t92":{"Id":"saransk","Name":"\u0421\u0430\u0440\u0430\u043d\u0441\u043a","Phone":"(8342) 47-00-72,","Longitude":"","Latitude":""},"t93":{"Id":"sarapul","Name":"\u0421\u0430\u0440\u0430\u043f\u0443\u043b","Phone":"8 (34147) 5-04-76","Longitude":"","Latitude":""},"t94":{"Id":"saratov","Name":"\u0421\u0430\u0440\u0430\u0442\u043e\u0432","Phone":"(8452) 50-93-96","Longitude":"","Latitude":""},"t95":{"Id":"severodvinsk","Name":"\u0421\u0435\u0432\u0435\u0440\u043e\u0434\u0432\u0438\u043d\u0441\u043a","Phone":"8-800-555-13-31","Longitude":"","Latitude":""},"t96":{"Id":"seversk","Name":"\u0421\u0435\u0432\u0435\u0440\u0441\u043a","Phone":"8-800-555-13-31","Longitude":"","Latitude":""},"t97":{"Id":"serov","Name":"\u0421\u0435\u0440\u043e\u0432","Phone":"(34385) 6-80-22","Longitude":"","Latitude":""},"t98":{"Id":"smolensk","Name":"\u0421\u043c\u043e\u043b\u0435\u043d\u0441\u043a","Phone":"250-260","Longitude":"","Latitude":""},"t99":{"Id":"sochi","Name":"\u0421\u043e\u0447\u0438","Phone":"(8622) 96-87-51","Longitude":"","Latitude":""},"t100":{"Id":"stavropol","Name":"\u0421\u0442\u0430\u0432\u0440\u043e\u043f\u043e\u043b\u044c","Phone":"8-800-555-13-31","Longitude":"","Latitude":""},"t101":{"Id":"stariyoskol","Name":"\u0421\u0442\u0430\u0440\u044b\u0439 \u041e\u0441\u043a\u043e\u043b","Phone":"8-800-555-13-31","Longitude":"","Latitude":""},"t102":{"Id":"sterlitamak","Name":"\u0421\u0442\u0435\u0440\u043b\u0438\u0442\u0430\u043c\u0430\u043a","Phone":"(3473) 24-39-89, (3473) 24-39-73 \u0441\u0435\u0440\u0432\u0438\u0441\u043d\u044b\u0439 \u0446\u0435\u043d\u0442\u0440","Longitude":"","Latitude":""},"t103":{"Id":"syktyvkar","Name":"\u0421\u044b\u043a\u0442\u044b\u0432\u043a\u0430\u0440","Phone":"8-800-555-13-31","Longitude":"","Latitude":""},"t104":{"Id":"taganrog","Name":"\u0422\u0430\u0433\u0430\u043d\u0440\u043e\u0433","Phone":"(863) 207-90-77","Longitude":"","Latitude":""},"t105":{"Id":"tambov","Name":"\u0422\u0430\u043c\u0431\u043e\u0432","Phone":"8-800-555-13-31","Longitude":"","Latitude":""},"t106":{"Id":"tver","Name":"\u0422\u0432\u0435\u0440\u044c","Phone":"8-800-555-13-31","Longitude":"","Latitude":""},"t107":{"Id":"tobolsk","Name":"\u0422\u043e\u0431\u043e\u043b\u044c\u0441\u043a","Phone":"(3456) 27-77-51","Longitude":"","Latitude":""},"t108":{"Id":"tolyatti","Name":"\u0422\u043e\u043b\u044c\u044f\u0442\u0442\u0438","Phone":"(8482) 950-359","Longitude":"","Latitude":""},"t109":{"Id":"tomsk","Name":"\u0422\u043e\u043c\u0441\u043a","Phone":"8-800-555-13-31","Longitude":"","Latitude":""},"t110":{"Id":"tuapse","Name":"\u0422\u0443\u0430\u043f\u0441\u0435","Phone":"(86167) 2-62-05","Longitude":"","Latitude":""},"t111":{"Id":"tula","Name":"\u0422\u0443\u043b\u0430","Phone":"(4872) 56-55-42","Longitude":"","Latitude":""},"t112":{"Id":"tumen","Name":"\u0422\u044e\u043c\u0435\u043d\u044c","Phone":"(3452) 20-95-77","Longitude":"","Latitude":""},"t113":{"Id":"ulan-ude","Name":"\u0423\u043b\u0430\u043d-\u0423\u0434\u044d","Phone":"(3012) 219-447","Longitude":"","Latitude":""},"t114":{"Id":"ulyanovsk","Name":"\u0423\u043b\u044c\u044f\u043d\u043e\u0432\u0441\u043a","Phone":"(8422) 27-77-33","Longitude":"","Latitude":""},"t115":{"Id":"usolie-sibirskoe","Name":"\u0423\u0441\u043e\u043b\u044c\u0435-\u0421\u0438\u0431\u0438\u0440\u0441\u043a\u043e\u0435","Phone":"(39543) 3-63-83","Longitude":"","Latitude":""},"t116":{"Id":"ussuriysk","Name":"\u0423\u0441\u0441\u0443\u0440\u0438\u0439\u0441\u043a","Phone":"(4234) 33-98-33, (4234) 33-43-66","Longitude":"","Latitude":""},"t117":{"Id":"ufa","Name":"\u0423\u0444\u0430","Phone":"(347) 246-34-18","Longitude":"","Latitude":""},"t118":{"Id":"khabarovsk","Name":"\u0425\u0430\u0431\u0430\u0440\u043e\u0432\u0441\u043a","Phone":"(4212) 21-88-60","Longitude":"","Latitude":""},"t119":{"Id":"tchaikovsky","Name":"\u0427\u0430\u0439\u043a\u043e\u0432\u0441\u043a\u0438\u0439","Phone":"(34241) 49-002","Longitude":"","Latitude":""},"t120":{"Id":"cheboksary","Name":"\u0427\u0435\u0431\u043e\u043a\u0441\u0430\u0440\u044b","Phone":"(8352) 62-02-04, 22-60-20","Longitude":"","Latitude":""},"t121":{"Id":"chelyabinsk","Name":"\u0427\u0435\u043b\u044f\u0431\u0438\u043d\u0441\u043a","Phone":"(351) 225-02-52","Longitude":"","Latitude":""},"t122":{"Id":"cherepovets","Name":"\u0427\u0435\u0440\u0435\u043f\u043e\u0432\u0435\u0446","Phone":"+7(8202) 241335","Longitude":"","Latitude":""},"t123":{"Id":"chita","Name":"\u0427\u0438\u0442\u0430","Phone":"(3022) 35-60-52","Longitude":"","Latitude":""},"t124":{"Id":"shakhty","Name":"\u0428\u0430\u0445\u0442\u044b","Phone":"(8636) 22-16-45","Longitude":"","Latitude":""},"t125":{"Id":"engels","Name":"\u042d\u043d\u0433\u0435\u043b\u044c\u0441","Phone":"(8453) 95-81-44","Longitude":"","Latitude":""},"t126":{"Id":"yuzhno-sakhalinsk","Name":"\u042e\u0436\u043d\u043e-\u0421\u0430\u0445\u0430\u043b\u0438\u043d\u0441\u043a","Phone":"(4242) 72-22-90","Longitude":"","Latitude":""},"t127":{"Id":"yurga","Name":"\u042e\u0440\u0433\u0430","Phone":"8-800-555-13-31","Longitude":"","Latitude":""},"t128":{"Id":"yakutsk","Name":"\u042f\u043a\u0443\u0442\u0441\u043a","Phone":"(4112) 42-96-08","Longitude":"","Latitude":""},"t129":{"Id":"yaroslavl","Name":"\u042f\u0440\u043e\u0441\u043b\u0430\u0432\u043b\u044c","Phone":"(4852)42-36-68","Longitude":"","Latitude":""},"t130":{"Id":"podolsk","Name":"\u041f\u043e\u0434\u043e\u043b\u044c\u0441\u043a","Phone":"(499) 390-70-49","Longitude":"55.432699","Latitude":"37.548869"},"t131":{"Id":"zelenodolsk","Name":"\u0417\u0435\u043b\u0435\u043d\u043e\u0434\u043e\u043b\u044c\u0441\u043a","Phone":"(84371) 5-79-45","Longitude":"55.847765","Latitude":"48.519679"}}